,FID,Shape *,OBJECTID,Join_Count,TARGET_FID,id,Unnamed: 6,aa,id_gst,nomb,tip_per,tip_doc,num_doc,dv,ciu,depto,muni,adress,cod_ver,longitude,latitude,sis_co,CTM12_Xo,CTM12_Yo,obs,tel,mail,recolec,almac,aprovec,finaldis,excav,cim_pil,petreo,no_pet,corespel,no_aprov,respel,DPTOMPIO,CODIGO_VER,NOM_DEP,NOMB_MPIO,NOMBRE_VER,COD_DPTO,F33
4,4,Point,1,1,0,GST8,,Corporación Autónoma Regional del Cauca - CRC,1030_19050_001_000000104,CONSORCIO ARGELIA BALBOA,Persona Jurídica,NIT,901291687,5,4220 - Construcción de proyectos de servicio público,CAUCA,ARGELIA,"Predio la Esmeralda, vereda El Zarzal, Argelia Cauca",0.0,-77.23716,2.248596,WGS 84 (ESPG:4326),4528627.94365709,1807173.62556227,,0.0,consorcioargeliabc@gmail.com,NO,NO,NO,SI,SI,NO,NO,NO,NO,NO,NO,19050.0,19050079.0,CAUCA,ARGELIA,LA BELLEZA,19.0, 
5,5,Point,2,1,1,GST13,,Corporación Autónoma Regional para la defensa de la Meseta de Bucaramanga - CDMB,,CEMEX COLOMBIA S.A.,Persona Jurídica,NIT,860002523,0,Fabricacion de cemento cal y yeso.,SANTANDER,BUCARAMANGA,Cl 99 No. 9 A - 54 P 8,0.0,-73.220292,7.501622,WGS 84 (ESPG:4326),4975705.13602518,2386925.88199145,,6039000.0,correo.juridica@cemex.com,,,SI,,,,,,,,,68255.0,68255011.0,SANTANDER,EL PLAYÓN,PLAYON,68.0, 
6,6,Point,3,1,2,GST14,,Corporación Autónoma Regional para la defensa de la Meseta de Bucaramanga - CDMB,,AMBIENTALES Y CIVILES DE COLOMBIA S.A.S(AMBICICOL S.A.S.),Persona Jurídica,NIT,901275822,0,Actividades de saneamiento ambiental y otros servicios de gestion de desechos: Prestan servicios ambientales y civiles.,SANTANDER,GIRÓN,Calle 37 No. 24 49 Apartamento 505,0.0,-73.310933,7.104521,WGS 84 (ESPG:4326),4965678.36749814,2343050.07919726,,3177370144.0,gerencia@ambicicol.com,,,SI,SI,,,,,,,,68307.0,68307005.0,SANTANDER,GIRÓN,LA PARROQUIA,68.0, 
7,7,Point,4,0,3,GST15,,Corporación Autónoma Regional para la defensa de la Meseta de Bucaramanga - CDMB,,"BOTADERO DE TIERRA EL PARQUE S.A. (Antes llamado asi, ahora Proyectos E Inversiones El Parque S A)",Persona Jurídica,NIT,900111586,0,Recoleccion de desechos no peligrosos,SANTANDER,BUCARAMANGA,Cr 37 No. 52 - 43 Of 402,0.0,-73.141367,7.083089,WGS 84 (ESPG:4326),4984394.91619141,2340672.6769349,,6570528.0,proinpark.sa@gmail.com,,,,SI,,,,,,,,68001.0,0.0,SANTANDER,BUCARAMANGA,,68.0, 
8,8,Point,5,1,4,GST16,,Corporación Autónoma Regional para la defensa de la Meseta de Bucaramanga - CDMB,,OSSA INGENIERIA S.A.S.,Persona Jurídica,NIT,900559198,0,"4923, Transporte De Carga Por Carretera. ",SANTANDER,PIEDECUESTA,ESCOMBRERA RANCHO GRANDE,0.0,-73.037283,6.964783,WGS 84 (ESPG:4326),4995883.35728593,2327597.41664969,,0.0,contabilidad@ossaingenieria.com,,,,SI,,,,,,,,68547.0,68547035.0,SANTANDER,PIEDECUESTA,LOS LLANITOS,68.0, 
9,9,Point,6,1,5,GST17,,Corporación Autónoma Regional del Valle del Cauca - CVC,GRUPO DE OCCIDENTE S.A.S.,GRUPO DE OCCIDENTE S.A.S.,Persona Jurídica,NIT,900480504,3,,VALLE DEL CAUCA,CANDELARIA,"Callejón El Samán corregimiento El Carmelo, predios Villa del Carmen y Filadelfia",0.0,-76.428363,3.400944,WGS 84 (ESPG:4326),4619101.53265691,1934486.64316318,,3117710539.0,,NO,SI,NO,SI,SI,SI,NO,NO,NO,NO,NO,76130.0,76130004.0,VALLE DEL CAUCA,CANDELARIA,EL CARMELO,76.0, 
10,10,Point,7,1,6,GST18,,Corporación Autónoma Regional del Valle del Cauca - CVC,FABIOLA ASPRILLA CACERES,FABIOLA ASPRILLA CACERES,Persona Jurídica,NIT,31180347,1,,VALLE DEL CAUCA,CANDELARIA,"Predio El Samán, Vereda Buchitolo",0.0,-76.428806,3.384842,WGS 84 (ESPG:4326),4619045.97106652,1932704.5240069,,3167978987.0,,NO,SI,NO,SI,SI,SI,SI,NO,NO,NO,NO,76130.0,76130009.0,VALLE DEL CAUCA,CANDELARIA,SAN JOAQUIN,76.0, 
11,11,Point,8,1,7,GST19,,Corporación Autónoma Regional del Valle del Cauca - CVC,GUSTAVO GARRIDO,GUSTAVO GARRIDO,Persona Natural,Cédula de Ciudadanía,6225775,0,,VALLE DEL CAUCA,CANDELARIA,"Predio La Carmelita, Vereda Caucaseco",0.0,-76.452167,3.439972,WGS 84 (ESPG:4326),4616469.23743455,1938816.17244937,,3177254443.0,,NO,SI,NO,SI,SI,SI,SI,NO,NO,NO,NO,76130.0,76130007.0,VALLE DEL CAUCA,CANDELARIA,JUANCHITO,76.0, 
12,12,Point,9,1,8,GST20,,Corporación Autónoma Regional del Valle del Cauca - CVC,SUMINISTRAMOS Y CONTRATAMOS AGG S.A.S.,SUMINISTRAMOS Y CONTRATAMOS AGG S.A.S.,Persona Jurídica,NIT,90119011,8,,VALLE DEL CAUCA,CANDELARIA,"Predio El Pescador Sentado, corregimiento El Carmelo",0.0,-76.42025,3.400306,WGS 84 (ESPG:4326),4620003.71289419,1934412.81103971,,3148095541.0,,NO,SI,NO,SI,SI,SI,SI,NO,NO,NO,NO,76130.0,76130004.0,VALLE DEL CAUCA,CANDELARIA,EL CARMELO,76.0, 
13,13,Point,10,1,9,GST21,,Corporación Autónoma Regional del Valle del Cauca - CVC,ECO-SYNERGY GREEN CONSULTORES S.A.S.,ECO-SYNERGY GREEN CONSULTORES S.A.S.,Persona Jurídica,NIT,901516045,5,,VALLE DEL CAUCA,CANDELARIA,"Predio La Carmelita de San Marcos, corregimiento El Carmelo",0.0,-75.888656,3.397778,WGS 84 (ESPG:4326),4679118.70899134,1933939.91865761,,3022575570.0,,NO,SI,SI,SI,SI,SI,SI,NO,NO,NO,NO,73616.0,73616039.0,TOLIMA,RIOBLANCO,EL SILENCIO,73.0, 
14,14,Point,11,1,10,GST22,,Corporación Autónoma Regional del Valle del Cauca - CVC,SERVIAPROVECHABLES VALLE S.A. E.S.P.,SERVIAPROVECHABLES VALLE S.A. E.S.P.,Persona Jurídica,NIT,901407836,7,,VALLE DEL CAUCA,CANDELARIA,"Predio La Cilia, corregimiento San Joaquín, municipio de Candelaria",0.0,-76.419506,3.387258,WGS 84 (ESPG:4326),4620081.38802486,1932968.27620715,,3168056894.0,,NO,SI,SI,SI,SI,SI,NO,NO,NO,NO,NO,76130.0,76130009.0,VALLE DEL CAUCA,CANDELARIA,SAN JOAQUIN,76.0, 
15,15,Point,12,1,11,GST23,,Corporación Autónoma Regional del Valle del Cauca - CVC,RECUPERADORA DE MATERIALES FM.,RECUPERADORA DE MATERIALES FM.,Persona Jurídica,NIT,6228016,1,,VALLE DEL CAUCA,PALMIRO,"Predio Sin Nombre, Corregimiento de Caucaseco",0.0,-75.5325,3.466944,WGS 84 (ESPG:4326),4718729.47395248,1941478.49797112,,3182138933.0,,NO,NO,NO,SI,SI,SI,SI,NO,NO,NO,NO,73067.0,73067024.0,TOLIMA,ATACO,MESA DE POLE,73.0, 
16,16,Point,13,1,12,GST24,,Corporación Autónoma Regional del Valle del Cauca - CVC,RECUPERADORA DE MATERIALES FM.,RECUPERADORA DE MATERIALES FM.,Persona Jurídica,NIT,6228016,1,,VALLE DEL CAUCA,PALMIRO,"Predio Sin Nombre, Corregimiento de Caucaseco",0.0,-76.470164,3.489775,WGS 84 (ESPG:4326),4614487.53591761,1944336.24438538,,3182138933.0,,NO,SI,NO,SI,SI,SI,SI,NO,NO,NO,NO,76520.0,76520010.0,VALLE DEL CAUCA,PALMIRA,CAUCASECO,76.0, 
17,17,Point,14,1,13,GST25,,Corporación Autónoma Regional del Valle del Cauca - CVC,PROMOTORA PACIFIC VALEY S.A.S.,PROMOTORA PACIFIC VALEY S.A.S.,Persona Jurídica,NIT,901349563,7,,VALLE DEL CAUCA,PALMIRO,"Predio Pacific Valey, Corregimiento de Caucaseco",0.0,-76.47154,3.457536,WGS 84 (ESPG:4326),4614321.40034208,1940768.23019305,,3113241655.0,,NO,NO,NO,SI,SI,NO,NO,NO,NO,NO,NO,76520.0,76520014.0,VALLE DEL CAUCA,PALMIRA,JUANCHITO,76.0, 
18,18,Point,15,1,14,GST26,,Corporación Autónoma Regional del Valle del Cauca - CVC,ARQUITECTURA MODERNA AMBIENTAL E.S.P S.A,ARQUITECTURA MODERNA AMBIENTAL E.S.P S.A,Persona Jurídica,NIT,901210926,4,,VALLE DEL CAUCA,YUMBO,"Predio Veracruz, Km. 3 vía Potrerito, Callejón Casuca.",0.0,-76.560716,3.227418,WGS 84 (ESPG:4326),4604309.11401121,1915330.12640609,,3154843288.0,,NO,SI,NO,SI,SI,SI,SI,NO,NO,NO,NO,76364.0,76364009.0,VALLE DEL CAUCA,JAMUNDÍ,PORERITO,76.0, 
19,19,Point,16,0,15,GST27,,Corporación Autónoma Regional del Valle del Cauca - CVC,COMPAÑÍA DE INGENIERÍA SANITARIA CODINSA S.A.S,COMPAÑÍA DE INGENIERÍA SANITARIA CODINSA S.A.S,Persona Jurídica,NIT,890319290,0,,VALLE DEL CAUCA,YUMBO,Carrera KR 35 B 16-395 ; Predio Parque Ambiental El Cortijo,0.0,-76.499107,3.501518,WGS 84 (ESPG:4326),4611273.00950726,1945648.08257499,,3182633016.0,,NO,NO,NO,SI,SI,SI,NO,NO,NO,NO,NO,76001.0,0.0,VALLE DEL CAUCA,YUMBO,,76.0, 
20,20,Point,17,1,16,GST28,,Corporación Autónoma Regional del Valle del Cauca - CVC,CODINSA S.A.S.  - CADE SAN JORGE,CODINSA S.A.S.  - CADE SAN JORGE,Persona Jurídica,NIT,890100251,0,,VALLE DEL CAUCA,YUMBO,,0.0,-76.502098,3.568273,WGS 84 (ESPG:4326),4610968.19983538,1953038.87472257,,3182874159.0,,NO,SI,SI,SI,SI,NO,SI,NO,NO,NO,NO,76892.0,76892002.0,VALLE DEL CAUCA,YUMBO,ARROYOHONDO,76.0, 
21,21,Point,18,1,17,GST29,,Corporación Autónoma Regional del Valle del Cauca - CVC,PROYECTOS AMBIENTALES SOSTENIBLES DE COLOMBIA S.A.S. – PROAMSOC S.A.S.,PROYECTOS AMBIENTALES SOSTENIBLES DE COLOMBIA S.A.S. – PROAMSOC S.A.S.,Persona Jurídica,NIT,901638388,1,,VALLE DEL CAUCA,YUMBO,Calle CL 9 21 A - 46 ; Km 11 antigua carretera Cali-Yumbo Lote 8. Hacienda Guabinas.,0.0,-76.513098,3.556738,WGS 84 (ESPG:4326),4609739.86064948,1951766.64186783,,3236288167.0,,NO,NO,NO,SI,SI,SI,SI,NO,NO,NO,NO,76892.0,76892002.0,VALLE DEL CAUCA,YUMBO,ARROYOHONDO,76.0, 
22,22,Point,19,0,18,GST30,,Corporación Autónoma Regional del Valle del Cauca - CVC,ROCALES Y CONCRETOS S.A.S.,ROCALES Y CONCRETOS S.A.S.,Persona Jurídica,NIT,800205166,7,,VALLE DEL CAUCA,CALI,Avenida AV 9 Oeste 2 bis - 28 ; Planta trituradora Rocales y Concretos S.A.S. Cgto. La Castilla,0.0,-76.567246,3.456883,WGS 84 (ESPG:4326),4603674.84305738,1940735.38130597,,0.0,,NO,NO,SI,NO,NO,NO,SI,NO,NO,NO,NO,76001.0,0.0,VALLE DEL CAUCA,CALI,,76.0, 
23,23,Point,20,1,19,GST31,,Corporación Autónoma Regional del Valle del Cauca - CVC,CARLOS ALBERTO PARRA TORO,CARLOS ALBERTO PARRA TORO,Persona Jurídica,NIT,14888186,3,,VALLE DEL CAUCA,RESTREPO,"Corregimiento Las Palmas, Predio Llanito",0.0,-76.548782,3.768165,WGS 84 (ESPG:4326),4605863.50524796,1975187.29243214,,3113543276.0,,NO,SI,NO,SI,SI,SI,SI,NO,NO,NO,NO,76606.0,76606018.0,VALLE DEL CAUCA,RESTREPO,MOZAMBIQUE,76.0, 
24,24,Point,21,1,20,GST32,,Corporación Autónoma Regional del Valle del Cauca - CVC,LUCELLY VARELA GUTIERREZ,LUCELLY VARELA GUTIERREZ,Persona Natural,Cédula de Ciudadanía,29771086,0,,VALLE DEL CAUCA,RESTREPO,PR81+400 Carril derecho de la doble calzada Buga - Buenaventura. Predio La Carolina,0.0,-76.584044,3.842684,WGS 84 (ESPG:4326),4601976.4359277,1983453.11236378,,3182503970.0,,NO,NO,SI,NO,SI,SI,NO,NO,NO,NO,NO,76233.0,76233024.0,VALLE DEL CAUCA,DAGUA,ZABALETAS,76.0, 
25,25,Point,22,1,21,GST33,,Corporación Autónoma Regional del Valle del Cauca - CVC,MUNICIPIO DE BUGALAGRANDE,MUNICIPIO DE BUGALAGRANDE,Persona Jurídica,NIT,891900253,1,,VALLE DEL CAUCA,BUGALAGRANDE,"Predio Las Brisas, Callejón Gualí, Sector La María, Corregimiento de El Overo",0.0,-76.129386,4.240378,WGS 84 (ESPG:4326),4652691.5341951,2027261.57217867,,0.0,,NO,NO,NO,SI,SI,SI,NO,NO,NO,NO,NO,76113.0,76113009.0,VALLE DEL CAUCA,BUGALAGRANDE,EL OVERO,76.0, 
26,26,Point,23,1,22,GST34,,Corporación Autónoma Regional del Valle del Cauca - CVC,ARISOL S.A.S.,ARISOL S.A.S.,Persona Jurídica,NIT,890329203,0,,VALLE DEL CAUCA,CAICEDONIA,"Predio Hacienda Jamaica, vereda Montegrande",0.0,-75.802513,4.389355,WGS 84 (ESPG:4326),4689060.07336094,2043602.87276992,,3117648485.0,,NO,NO,SI,NO,NO,NO,SI,NO,NO,NO,NO,76122.0,76122018.0,VALLE DEL CAUCA,CAICEDONIA,MONTEGRANDE,76.0, 
27,27,Point,24,1,23,GST35,,Corporación Autónoma Regional del Valle del Cauca - CVC,GESTORES Y SOLUCIONES EL PACÍFICO S.A.S.,GESTORES Y SOLUCIONES EL PACÍFICO S.A.S.,Persona Jurídica,NIT,901271879,1,,VALLE DEL CAUCA,CARTAGO,Km. 2 vía Cartago La Julia.,0.0,-75.888656,4.766972,WGS 84 (ESPG:4326),4679662.84266205,2085416.03717382,,3012352982.0,,NO,SI,SI,NO,NO,NO,NO,NO,NO,NO,NO,66001.0,66001011.0,RISARALDA,PEREIRA,PUERTO CALDAS,66.0, 
28,28,Point,25,1,24,GST36,,Corporación Autónoma Regional del Valle del Cauca - CVC,CONTRATO DE CONCESIÓN HDK-091,CONTRATO DE CONCESIÓN HDK-091,Persona Jurídica,NIT,8071592,2,,VALLE DEL CAUCA,CARTAGO,"Predio El Bosque, sector Los Almendros",0.0,-75.888666,4.751644,WGS 84 (ESPG:4326),4679654.63308549,2083720.28085059,,3116122015.0,,NO,SI,SI,SI,SI,SI,SI,NO,NO,NO,NO,76147.0,76147005.0,VALLE DEL CAUCA,CARTAGO,PIEDRA DE MOLER,76.0, 
29,29,Point,26,1,25,GST37,,Corporación Autónoma Regional del Valle del Cauca - CVC,VEOLIA ASEO BUGA S.A. E.S.P.,VEOLIA ASEO BUGA S.A. E.S.P.,Persona Jurídica,NIT,8015000649,6,,VALLE DEL CAUCA,SAN PEDRO,"Parque Tecnológico Ambiental Presidente, Vereda Arenales, Corregimiento de Presidente",0.0,-76.24414,3.968118,WGS 84 (ESPG:4326),4639820.23627926,1997183.53013507,,0.0,,NO,NO,SI,SI,SI,SI,SI,SI,NO,NO,NO,76670.0,76670011.0,VALLE DEL CAUCA,SAN PEDRO,PRESIDENTE,76.0, 
30,30,Point,27,1,26,GST38,,Corporación Autónoma Regional de Chivor – CORPOCHIVOR,RCD 01/18,CONCESION SOMONDOCO- EL SALITRE 2018,Persona Jurídica,NIT,0,9,,BOYACÁ,SUTATENZA,VEREDA PIEDRA LARGA,15778006.0,-73.443,5.0053,WGS 84 (ESPG:4326),4950911.08561058,2111094.85125231,,0.0,"ambiental2@ingenieriadevias.com.co, ambientalsomondoco@gmail.com",NO,NO,SI,SI,SI,NO,NO,NO,NO,NO,NO,15778.0,15778006.0,BOYACÁ,SUTATENZA,PIEDRA LARGA,15.0, 
31,31,Point,28,1,27,GST39,,Corporación Autónoma Regional de Chivor – CORPOCHIVOR,RCD 02/18,CONCESION SOMONDOCO- EL SALITRE 2019,Persona Jurídica,NIT,0,9,,BOYACÁ,SOMONDOCO,VEREDA BOHORQUEZ,15761002.0,-73.4258,4.99866,WGS 84 (ESPG:4326),4952816.58095449,2110359.88858706,,0.0,"ambiental2@ingenieriadevias.com.co, ambientalsomondoco@gmail.com",NO,NO,SI,SI,SI,NO,NO,NO,NO,NO,NO,15761.0,15761002.0,BOYACÁ,SOMONDOCO,BOHÓRQUEZ,15.0, 
32,32,Point,29,1,28,GST41,,Corporación Autónoma Regional de Chivor – CORPOCHIVOR,RCD 04/18,CONCESION TRASNVERSAL DEL SISGA,Persona Jurídica,NIT,0,9,,BOYACÁ,SAN LUIS DE GACENO,VEREDA LA DORADA,15667019.0,-73.148102,4.8288,WGS 84 (ESPG:4326),4983584.63370028,2091577.91645705,,7424880.0,j_herrera@concesiondelsisga.com.co,NO,NO,SI,SI,SI,NO,NO,NO,NO,NO,NO,15667.0,15667019.0,BOYACÁ,SAN LUIS DE GACENO,LA DORADA,15.0, 
33,33,Point,30,1,29,GST42,,Corporación Autónoma Regional de Chivor – CORPOCHIVOR,RCD 05/18,CONCESION TRASNVERSAL DEL SISGA,Persona Jurídica,NIT,0,9,,BOYACÁ,SAN LUIS DE GACENO,VEREDA LA DORADA,15667019.0,-73.148102,4.8288,WGS 84 (ESPG:4326),4983584.63370028,2091577.91645705,,7424880.0,j_herrera@concesiondelsisga.com.co,NO,NO,SI,SI,SI,NO,SI,NO,NO,NO,NO,15667.0,15667019.0,BOYACÁ,SAN LUIS DE GACENO,LA DORADA,15.0, 
34,34,Point,31,1,30,GST43,,Corporación Autónoma Regional de Chivor – CORPOCHIVOR,RCD 06/18,CONCESION TRASNVERSAL DEL SISGA,Persona Jurídica,NIT,0,9,,BOYACÁ,MACANAL,VEREDA LA VEGA,15425006.0,-73.321297,4.96028,WGS 84 (ESPG:4326),4964394.79612984,2106112.47100569,,7424880.0,j_herrera@concesiondelsisga.com.co,NO,NO,SI,SI,SI,NO,NO,NO,NO,NO,NO,15425.0,15425006.0,BOYACÁ,MACANAL,LA VEGA,15.0, 
35,35,Point,32,1,31,GST44,,Corporación Autónoma Regional de Chivor – CORPOCHIVOR,RCD 07/18,CONCESION TRASNVERSAL DEL SISGA,Persona Jurídica,NIT,0,9,,BOYACÁ,MACANAL,VEREDA LA VEGA,15425006.0,-73.321297,4.96028,WGS 84 (ESPG:4326),4964394.79612984,2106112.47100569,,7424880.0,j_herrera@concesiondelsisga.com.co,NO,NO,SI,SI,SI,NO,NO,NO,NO,NO,NO,15425.0,15425006.0,BOYACÁ,MACANAL,LA VEGA,15.0, 
36,36,Point,33,1,32,GST47,,Corporación Autónoma Regional de Chivor – CORPOCHIVOR,RCD 01/21,INGENIERIA DE VIAS S.A.S,Persona Jurídica,NIT,0,9,,BOYACÁ,GARAGOA,VEREDA HIPAQUIRA,15299021.0,-73.388298,5.04474,WGS 84 (ESPG:4326),4956975.30625353,2115449.03220021,Se adjunta radicado pero no indica ubicación,2880275.0,gerencia@ingenieriadevias.com.co,NO,NO,SI,SI,SI,NO,NO,NO,NO,NO,NO,15299.0,15299021.0,BOYACÁ,GARAGOA,HIPAQUIRA,15.0, 
37,37,Point,34,0,33,GST48,,Corporación Autónoma Regional del Quindío - CRQ,,EMPRESAS PÚBLICAS DE CALARCÁ E.S.P - EMCA,Persona Jurídica,NIT,0,0,,QUINDIO,CALARCÁ,Cra 24 No. 39-54 Torre B Calarcá,0.0,-75.640217,4.530778,WGS 84 (ESPG:4326),4707136.08475356,2059180.03744673,G-1 Norte: 1054114.92,3156127130.0,contactenos@emca-calarca-quindio.gov.co,NO,NO,SI,SI,SI,NO,SI,SI,NO,NO,NO,63130.0,0.0,QUINDIO,CALARCÁ,,63.0, 
38,38,Point,35,0,34,GST49,,Corporación Autónoma Regional del Quindío - CRQ,,IPR Ingeniería y Movimiento de Tierra SAS,Persona Jurídica,NIT,0,0,,QUINDIO,ARMENIA,Carrera 19 N° 26N-49 Edificio Metroloft Armenia,0.0,-75.652929,4.568435,WGS 84 (ESPG:4326),4705740.26154716,2063350.42634212,Este: 1076545.50,3173660339.0,ipringeniería@gmail.com,NO,NO,SI,SI,SI,NO,SI,SI,NO,NO,NO,63130.0,0.0,QUINDIO,CALARCÁ,,63.0, 
39,39,Point,36,0,35,GST51,,Corporación Autónoma Regional del Quindío - CRQ,,PJH LTDA TRITURADOS TESORITO,Persona Jurídica,NIT,8010025170,0,,QUINDIO,ARMENIA,Calle 2 norte N° 18-144 bloque 5 Apto 304 Bulevar del Coliseo,0.0,-75.66617,4.547269,WGS 84 (ESPG:4326),4704261.94279923,2061014.69846783,Este: 1076546.86,6067465692.0,trituradostesorito@hotmail.com,NO,SI,SI,NO,SI,NO,SI,NO,NO,NO,NO,63130.0,0.0,QUINDIO,CALARCÁ,,63.0, 
40,40,Point,37,0,36,GST123,,Área Metropolitana del Valle De Aburrá  - AMVA,,CONCRETOS Y ASFALTOS S.A. -CONASFALTOS S.A.,Persona Jurídica,NIT,890929951,0,,ANTIOQUIA,BELLO,Calle CL 8 65-191 Guayabal,0.0,-75.52648,6.343107,WGS 84 (ESPG:4326),4720598.55169775,2259582.52020972,Coordenadas extraidas de acuerdo a la ubicación en google maps considerando las direcciones proporcionadas.,0.0,info@conasfaltos.com,NO,NO,NO,SI,NO,NO,NO,NO,NO,NO,NO,5088.0,0.0,ANTIOQUIA,BELLO,,5.0, 
41,41,Point,38,0,37,GST124,,Área Metropolitana del Valle De Aburrá  - AMVA,,INDUSTRIAL CONCONCRETO S.A.S,Persona Jurídica,NIT,890908901,0,,ANTIOQUIA,GIRARDOTA,Calle CL 5 21-24,0.0,-75.445297,6.381282,WGS 84 (ESPG:4326),4729601.92969392,2263761.44941027,Coordenadas extraidas de acuerdo a la ubicación en google maps considerando las direcciones proporcionadas.,3207278029.0,jsierrac@industrialcc.co,NO,NO,NO,SI,NO,NO,NO,NO,NO,NO,NO,5308.0,0.0,ANTIOQUIA,GIRARDOTA,,5.0, 
42,42,Point,39,0,38,GST125,,Área Metropolitana del Valle De Aburrá  - AMVA,,CONSTRUCCION CONESCOMBROS SAS CONESCO,Persona Jurídica,NIT,9008600351,0,,ANTIOQUIA,BELLO,Calle CL 30 55-99,0.0,-75.526773,6.342703,WGS 84 (ESPG:4326),4720565.87356916,2259538.00064412,Coordenadas extraidas de acuerdo a la ubicación en google maps considerando las direcciones proporcionadas.,3185777713.0,e.prieto@conescombros.com,NO,NO,SI,NO,NO,NO,NO,NO,NO,NO,NO,5088.0,0.0,ANTIOQUIA,BELLO,,5.0, 
43,43,Point,40,0,39,GST126,,Área Metropolitana del Valle De Aburrá  - AMVA,,RECICOLPROS,Persona Jurídica,NIT,901233324,0,,ANTIOQUIA,COPACABANA,Calle CL 41 81-120 interior 150,0.0,-75.533767,6.334498,WGS 84 (ESPG:4326),4719787.57108961,2258634.18943056,Coordenadas extraidas de acuerdo a la ubicación en google maps considerando las direcciones proporcionadas.,3103417573.0,recicolpros@gmail.com,NO,SI,NO,NO,NO,NO,NO,NO,NO,NO,NO,5212.0,0.0,ANTIOQUIA,COPACABANA,,5.0, 
44,44,Point,41,0,40,GST127,,Área Metropolitana del Valle De Aburrá  - AMVA,,COMERCIALIZADORA DE RECICLAJE BENYA S.A.S,Persona Jurídica,NIT,9014539916,0,,ANTIOQUIA,MEDELLÍN,Carrera KR 52 100-74,0.0,-75.561462,6.293673,WGS 84 (ESPG:4326),4716700.49381369,2254133.69174603,Coordenadas extraidas de acuerdo a la ubicación en google maps considerando las direcciones proporcionadas.,0.0,comercializadoradereciclajesbenyas.a.s@hotmail.com,NO,SI,NO,NO,NO,NO,NO,NO,NO,NO,NO,5001.0,0.0,ANTIOQUIA,MEDELLÍN,,5.0, 
45,45,Point,42,0,41,GST128,,Área Metropolitana del Valle De Aburrá  - AMVA,,LUZ ENITH ARCILA NIETO - EXCEDENTES ARCILA,Persona Jurídica,NIT,1055832128,0,,ANTIOQUIA,MEDELLÍN,Carrera KR 65 26-34,0.0,-75.583257,6.22775,WGS 84 (ESPG:4326),4714252.49987106,2246853.89597459,Coordenadas extraidas de acuerdo a la ubicación en google maps considerando las direcciones proporcionadas.,3104378125.0,excedentesarcila@gmail.com,NO,SI,NO,NO,NO,NO,NO,NO,NO,NO,NO,5001.0,0.0,ANTIOQUIA,MEDELLÍN,,5.0, 
46,46,Point,43,0,42,GST129,,Área Metropolitana del Valle De Aburrá  - AMVA,,NEILA JOHAMMA ROMERO QUIROGA - RESICONSA,Persona Jurídica,NIT,1017219024,0,,ANTIOQUIA,SABANETA,Carrera KR 48 68-35,0.0,-75.616842,6.154238,WGS 84 (ESPG:4326),4710494.84629851,2238740.82198586,Coordenadas extraidas de acuerdo a la ubicación en google maps considerando las direcciones proporcionadas.,3117652838.0,resiconsa@gmail.com,NO,SI,NO,NO,NO,NO,NO,NO,NO,NO,NO,5631.0,0.0,ANTIOQUIA,SABANETA,,5.0, 
47,47,Point,44,0,43,GST130,,Área Metropolitana del Valle De Aburrá  - AMVA,,EXCEDENTES D&J,Persona Jurídica,NIT,71371869,0,,ANTIOQUIA,MEDELLÍN,Carrera KR 91 83-4,0.0,-75.590116,6.290585,WGS 84 (ESPG:4326),4713527.56824679,2253807.83301827,Coordenadas extraidas de acuerdo a la ubicación en google maps considerando las direcciones proporcionadas.,3137881097.0,diegocano480@gmal.com,NO,SI,NO,NO,NO,NO,NO,NO,NO,NO,NO,5001.0,0.0,ANTIOQUIA,MEDELLÍN,,5.0, 
48,48,Point,45,0,44,GST131,,Área Metropolitana del Valle De Aburrá  - AMVA,,INVERSORA Y COMERCIALIZADORA BELLAVILLA S.A.S.,Persona Jurídica,NIT,900653155,0,,ANTIOQUIA,MEDELLÍN,Carrera KR 52 102-31,0.0,-75.559754,6.29563,WGS 84 (ESPG:4326),4716890.60983655,2254349.19374382,Coordenadas extraidas de acuerdo a la ubicación en google maps considerando las direcciones proporcionadas.,3052803230.0,inversorabellavilla@gmail.com,NO,SI,NO,NO,NO,NO,NO,NO,NO,NO,NO,5001.0,0.0,ANTIOQUIA,MEDELLÍN,,5.0, 
49,49,Point,46,0,45,GST132,,Área Metropolitana del Valle De Aburrá  - AMVA,,ASOCIACION RECIRCULAR,Persona Jurídica,NIT,901326117,0,,ANTIOQUIA,COPACABANA,Calle CL 50 42-59,0.0,-75.503177,6.350011,WGS 84 (ESPG:4326),4723180.90945776,2260333.54357001,"De acuerdo a la dirección, se evidencia que está ubicada en Copacabana. Por ello, se modifica el municipio (antes Medellín); Coordenadas extraidas de acuerdo a la ubicación en google maps considerando las direcciones proporcionadas.",0.0,gerencia@recircular.com.co,NO,SI,NO,NO,NO,NO,NO,NO,NO,NO,NO,5212.0,0.0,ANTIOQUIA,COPACABANA,,5.0, 
50,50,Point,47,0,46,GST133,,Área Metropolitana del Valle De Aburrá  - AMVA,,INNOVACION Y DESARROLLO AMBIENTAL,Persona Jurídica,NIT,900420412,0,,ANTIOQUIA,ITAGÜÍ,Carrera KR 45 66-182,0.0,-75.608787,6.165134,WGS 84 (ESPG:4326),4711392.45845076,2239941.72857301,Coordenadas extraidas de acuerdo a la ubicación en google maps considerando las direcciones proporcionadas.,3113884776.0,gerencia@innovacionydesarrollo.com.co,NO,SI,SI,NO,NO,NO,NO,NO,NO,NO,NO,5360.0,0.0,ANTIOQUIA,ITAGÜÍ,,5.0, 
51,51,Point,48,0,47,GST134,,Área Metropolitana del Valle De Aburrá  - AMVA,,ALIANZA INDUSTRIAL JH S.A.S,Persona Jurídica,NIT,901476230,0,,ANTIOQUIA,MEDELLÍN,Calle CL 82 51-35,0.0,-75.56386,6.276433,WGS 84 (ESPG:4326),4716425.76294131,2252228.12604585,Coordenadas extraidas de acuerdo a la ubicación en google maps considerando las direcciones proporcionadas.,0.0,alianzaindustrialjh@gmail.com,NO,SI,NO,NO,NO,NO,NO,NO,NO,NO,NO,5001.0,0.0,ANTIOQUIA,MEDELLÍN,,5.0, 
52,52,Point,49,0,48,GST135,,Área Metropolitana del Valle De Aburrá  - AMVA,,CLEVERT PLANET PLANET S.A.S.,Persona Jurídica,NIT,901600020,0,,ANTIOQUIA,MEDELLÍN,Carrera KR 46 38-48,0.0,-75.570114,6.238539,WGS 84 (ESPG:4326),4715713.02040398,2248040.12723128,Coordenadas extraidas de acuerdo a la ubicación en google maps considerando las direcciones proporcionadas.,3207622189.0,cleverplanet2022@outlook.com,NO,SI,NO,NO,NO,NO,NO,NO,NO,NO,NO,5001.0,0.0,ANTIOQUIA,MEDELLÍN,,5.0, 
53,53,Point,50,0,49,GST136,,Área Metropolitana del Valle De Aburrá  - AMVA,,MG EXCEDENTES INDUSTRIALES SAS,Persona Jurídica,NIT,901079398,0,,ANTIOQUIA,LA ESTRELLA,Carrera KR 51 98-398,0.0,-75.634892,6.136573,WGS 84 (ESPG:4326),4708486.91628495,2236796.71677988,Coordenadas extraidas de acuerdo a la ubicación en google maps considerando las direcciones proporcionadas.,3148932151.0,gerencia@mgexcedentesindustriales.com,NO,SI,SI,NO,NO,NO,NO,NO,NO,NO,NO,11001.0,0.0,"BOGOTÁ, D.C.",LA ESTRELLA,,5.0, 
54,54,Point,51,1,50,GST140,,Corporación Autónoma Regional del Canal del Dique - CARDIQUE,,BIOGER S.A. E.S.P.,Persona Jurídica,NIT,9000167073,0,,BOLÍVAR,TURBANÁ,Variante Mamonal Gambote KM 23,0.0,-75.483508,10.271878,WGS 84 (ESPG:4326),4728076.48473325,2694119.04653877,,3219125497.0,www.emdepsa.com,NO,NO,NO,SI,NO,NO,NO,NO,NO,NO,NO,13838.0,13838005.0,BOLÍVAR,TURBANÁ,SIN INFORMACION,13.0, 
55,55,Point,52,1,51,GST141,,Corporación Autónoma Regional del Canal del Dique - CARDIQUE,,CARIBE VERDE,,,0,0,,BOLÍVAR,CARTAGENA DE INDIAS,Zona rural dolores km 18 -720,0.0,-75.449242,10.246031,WGS 84 (ESPG:4326),4731808.78992788,2691231.08811586,,0.0,,NO,NO,NO,SI,NO,NO,NO,NO,NO,NO,NO,13838.0,13838005.0,BOLÍVAR,TURBANÁ,SIN INFORMACION,13.0, 
56,56,Point,53,1,52,GST143,,Corporación Autónoma Regional de Santander - CAS,,RCD EL CASCAJAL,Persona Jurídica,NIT,901247948,6,,SANTANDER,SAN GIL,Vereda El Cucharo,0.0,-73.187433,6.549006,WGS 84 (ESPG:4326),4979286.81264842,2281657.18275044,,0.0,NO,NO,SI,SI,SI,,,,,,,,68679.0,68679007.0,SANTANDER,SAN GIL,EL CUCHARO,68.0, 
57,57,Point,54,1,53,GST144,,Corporación Autónoma Regional de Santander - CAS,,Felix Maria Rincon Ardila,Persona Natural,Cédula de Ciudadanía,91066167,0,,SANTANDER,CURITÍ,Vereda Palo Blanco Bajo,0.0,-73.088638,6.599636,WGS 84 (ESPG:4326),4990205.61526889,2287248.85338759,,0.0,NO,NO,NO,NO,SI,,,,,,,,68229.0,68229015.0,SANTANDER,CURITÍ,PALO BLANCO,68.0, 
58,58,Point,55,1,54,GST146,,Corporación Autónoma Regional de Santander - CAS,,ECOSANGIL S.A.S - E.S.P,Persona Jurídica,NIT,900328213,6,,SANTANDER,SAN GIL,Vereda El Cucharo,0.0,-73.188075,6.550586,WGS 84 (ESPG:4326),4979215.96749425,2281831.86199151,,0.0,NO,NO,NO,NO,SI,,,,,,,,68679.0,68679007.0,SANTANDER,SAN GIL,EL CUCHARO,68.0, 
59,59,Point,56,0,55,GST150,,Corporación Autónoma Regional de las Cuencas de los Ríos Negro y Nare - CORNARE,,KONTROLGRUN S.A.S,Persona Jurídica,NIT,900541572,7,,ANTIOQUIA,ENVIGADO,"CRA 45 No.34 Sur57, Envigado",0.0,-75.588481,6.173822,WGS 84 (ESPG:4326),4713645.07153576,2240891.74382345,Jurisdiccion de CORANTIOQUIA. Se identifican coordenadas acorde a la dirección. Coordenadas identificadas de acuerdo a la ubicación en google maps considerando las direcciones y la razón social proporcionadas.,0.0,,NO,NO,SI,NO,,,,,,,,5266.0,0.0,ANTIOQUIA,ENVIGADO,,5.0, 
60,60,Point,57,0,56,GST151,,Corporación Autónoma Regional de las Cuencas de los Ríos Negro y Nare - CORNARE,,CONSTRUCCION CON ESCOMBROSSAS,Persona Jurídica,NIT,900860035,1,,ANTIOQUIA,MEDELLÍN,"Diagonal 51 # 15 A-161, Medellín",0.0,-75.585056,6.260538,WGS 84 (ESPG:4326),4714071.13799275,2250481.50640358,"Jurisdiccion de AMVA, pero no es reportado por esa AA. Coordenadas identificadas de acuerdo a la ubicación en google maps considerando las direcciones y la razón social proporcionadas.",0.0,,NO,NO,SI,NO,,,,,,,,5001.0,0.0,ANTIOQUIA,MEDELLÍN,,5.0, 
61,61,Point,58,0,57,GST152,,Corporación Autónoma Regional de las Cuencas de los Ríos Negro y Nare - CORNARE,,EMPRESAS VARIAS DEMEDELLIN S.A..E.S.P.,Persona Jurídica,NIT,890905055,9,,ANTIOQUIA,MEDELLÍN,"CRA 58No.52-125Edificio EPM, Medellín",0.0,-75.578008,6.245281,WGS 84 (ESPG:4326),4714843.01142788,2248790.08967052,"Jurisdiccion de AMVA, pero no es reportado por esa AA. Coordenadas identificadas de acuerdo a la ubicación en google maps considerando las direcciones y la razón social proporcionadas.",0.0,,NO,SI,NO,NO,,,,,,,,5001.0,0.0,ANTIOQUIA,MEDELLÍN,,5.0, 
62,62,Point,59,0,58,GST153,,Corporación Autónoma Regional de las Cuencas de los Ríos Negro y Nare - CORNARE,,JOHNATAN BOTERO ECHEVERRY,Persona Natural,Cédula de Ciudadanía,1040035398,0,,ANTIOQUIA,RIONEGRO,"CRA 75 No.42-90, Rionegro",0.0,-75.391652,6.150606,WGS 84 (ESPG:4326),4735421.09251479,2238222.31472841,Ubicada en el casco urbano. Coordenadas identificadas de acuerdo a la ubicación en google maps considerando las direcciones y la razón social proporcionadas.,0.0,,NO,"CLASIFICACIÓN EN EL LUGAR DERECOLECCIÓN, TRANSPORTE Y ENTREGA.",NO,NO,,,,,,,,5615.0,0.0,ANTIOQUIA,RIONEGRO,,5.0, 
63,63,Point,60,1,59,GST154,,Corporación Autónoma Regional de las Cuencas de los Ríos Negro y Nare - CORNARE,,APROVECHADORA LOS SOCIOS,Persona Jurídica,NIT,900411667,0,,ANTIOQUIA,RIONEGRO,"Autopista Medellin- Bogotá, retorno 11,vereda La Mosca, Rionegro",5615019.0,-75.382166,6.207461,WGS 84 (ESPG:4326),4736499.20590476,2244505.4026064,Coordenadas identificadas de acuerdo a la ubicación en google maps considerando las direcciones y la razón social proporcionadas.,0.0,,NO,NO,SI,NO,NO,NO,NO,SI,NO,NO,NO,5615.0,5615019.0,ANTIOQUIA,RIONEGRO,LA MOSCA,5.0, 
64,64,Point,61,1,60,GST155,,Corporación Autónoma Regional de las Cuencas de los Ríos Negro y Nare - CORNARE,,CONPRECOLOR,Persona Jurídica,NIT,71661206,4,,ANTIOQUIA,GUARNE,"Autopista Medellin- Bogotá, km. 20,vereda El Sango, Guarne",0.0,-75.451863,6.294321,WGS 84 (ESPG:4326),4728829.96454938,2254147.18082346,Coordenadas identificadas de acuerdo a la ubicación en google maps considerando las direcciones y la razón social proporcionadas.,0.0,,NO,NO,SI,NO,,,,,,,,5318.0,5318012.0,ANTIOQUIA,GUARNE,EL ZANGO,5.0, 
65,65,Point,62,1,61,GST156,,Corporación Autónoma Regional de las Cuencas de los Ríos Negro y Nare - CORNARE,,INGETIERRAS DE COLOMBIA S.A.,Persona Jurídica,NIT,811006779,8,,ANTIOQUIA,RIONEGRO,"Km 2 Vía el Tranvía, Rionegro",0.0,-75.364699,6.171122,WGS 84 (ESPG:4326),4738414.56296622,2240477.88388341,Coordenadas identificadas de acuerdo a la ubicación en google maps considerando las direcciones y la razón social proporcionadas.,0.0,,NO,NO,SI,SI,,,,,,,,5615.0,5615008.0,ANTIOQUIA,RIONEGRO,CIMARRONAS,5.0, 
66,66,Point,63,1,62,GST157,,Corporación Autónoma Regional de las Cuencas de los Ríos Negro y Nare - CORNARE,,ECO RCD S.A.S,Persona Jurídica,NIT,901296419,0,,ANTIOQUIA,RIONEGRO,"Km 1 Autopista Medellín-Bogotá, sector Pintuco, Rionegro",0.0,-75.368728,6.17239,WGS 84 (ESPG:4326),4737969.21787978,2240620.13592148,Coordenadas identificadas de acuerdo a la ubicación en google maps considerando las direcciones y la razón social proporcionadas.,0.0,,NO,SI,SI,SI,,,,,,,,5615.0,5615018.0,ANTIOQUIA,RIONEGRO,LA LAJA,5.0, 
67,67,Point,64,0,63,GST158,,Corporación Autónoma Regional de las Cuencas de los Ríos Negro y Nare - CORNARE,,CAPIRO S.A.S ESP,Persona Jurídica,NIT,901502636,7,,ANTIOQUIA,RIONEGRO,"Transversal 49300- 200, sector El Tranvia, Rionegro, Antioquia",0.0,-75.364332,6.161564,WGS 84 (ESPG:4326),4738450.39454115,2239420.75477225,Coordenadas identificadas de acuerdo a la ubicación en google maps considerando las direcciones y la razón social proporcionadas.,0.0,,NO,SI,SI,SI,,,,,,,,5615.0,0.0,ANTIOQUIA,RIONEGRO,,5.0, 
68,68,Point,65,0,64,GST160,,Corporación Autónoma Regional de las Cuencas de los Ríos Negro y Nare - CORNARE,,FERRESEGUNDAS MARINILLA,Persona Jurídica,NIT,71782375,1,,ANTIOQUIA,MARINILLA,"Carrera 31 27-01, Marinilla, Antioquia",0.0,-75.336726,6.171923,WGS 84 (ESPG:4326),4741510.98811291,2240552.85128985,Ubicada en el casco urbano. Coordenadas identificadas de acuerdo a la ubicación en google maps considerando las direcciones y la razón social proporcionadas.,0.0,,NO,SI,NO,NO,,,,,,,,5440.0,0.0,ANTIOQUIA,MARINILLA,,5.0, 
69,69,Point,66,0,65,GST162,,Corporación Autónoma Regional de las Cuencas de los Ríos Negro y Nare - CORNARE,,EXCEDENTES DyJ,Persona Jurídica,NIT,71371869,2,,ANTIOQUIA,MEDELLÍN,"Carrera 91 83-04, Interior 201, Medellìn, Antuioquia",0.0,-75.607647,6.256243,WGS 84 (ESPG:4326),4711568.39478842,2250018.83693017,Coordenadas identificadas de acuerdo a la ubicación en google maps considerando las direcciones y la razón social proporcionadas.,0.0,,NO,SI,NO,NO,,,,,,,,5001.0,0.0,ANTIOQUIA,MEDELLÍN,,5.0, 
70,70,Point,67,0,66,GST163,,Corporación Autónoma Regional de las Cuencas de los Ríos Negro y Nare - CORNARE,,Asociación de Recicladores de Oficio Oriente Antioqueño AROFUTURO,Persona Jurídica,NIT,901116068,9,,ANTIOQUIA,LA CEJA,"Cra 23 # 21-39, La Ceja del Tambo, Antioquia",0.0,-75.433495,6.033066,WGS 84 (ESPG:4326),4730730.84123612,2225243.66526869,"Este gestor se encuentra en jurisdiccion de AMVA, pero no es reportado por esa AA. Coordenadas identificadas de acuerdo a la ubicación en google maps considerando las direcciones y la razón social proporcionadas.",0.0,,NO,SI,SI,NO,,,,,,,,5376.0,0.0,ANTIOQUIA,LA CEJA,,5.0, 
71,71,Point,68,0,67,GST164,,Corporación Autónoma Regional de las Cuencas de los Ríos Negro y Nare - CORNARE,,EXCAVAR S.A.S.,Persona Jurídica,NIT,900525171,1,,ANTIOQUIA,RIONEGRO,"Carrera 47 62-17, Rionegro, Antioquia",0.0,-75.368787,6.161161,WGS 84 (ESPG:4326),4737957.18641116,2239378.34011807,Coordenadas identificadas de acuerdo a la ubicación en google maps considerando las direcciones y la razón social proporcionadas.,0.0,,NO,NO,SI,NO,SI,NO,SI,NO,NO,NO,NO,5615.0,0.0,ANTIOQUIA,RIONEGRO,,5.0, 
72,72,Point,69,0,68,GST168,,Corporación Autónoma Regional de las Cuencas de los Ríos Negro y Nare - CORNARE,,EMPRESA DE SERVICIOS PÚBLICOS DE GRANADA E.S.P.G,Persona Jurídica,NIT,811016501,0,,ANTIOQUIA,GRANADA,"Calle 20 No 20-05, Granada, Antioquia",0.0,-75.184099,6.144536,WGS 84 (ESPG:4326),4758390.55299032,2237452.74861543,Coordenadas identificadas de acuerdo a la ubicación en google maps considerando las direcciones y la razón social proporcionadas.,0.0,,NO,NO,NO,SI,,,,,,,,5313.0,0.0,ANTIOQUIA,GRANADA,,5.0, 
73,73,Point,70,0,69,GST169,,Corporación Autónoma Regional de Caldas - CORPOCALDAS,GES116,MAURICIO RAFAEL PABA PINZON,Persona Jurídica,NIT,901284991,0,,CALDAS,SAMANÁ,CARRERA 7 #7-09,0.0,-74.99151,5.413526,WGS 84 (ESPG:4326),4779421.0437244,2156546.94617416,Coordenadas identificadas de acuerdo a la ubicación en google maps considerando las direcciones y la razón social proporcionadas.,3153332792.0,CEVCALDAS@ESFUERZOVERTICAL.COM,NO,NO,NO,SI,,,,,,,,17662.0,0.0,CALDAS,SAMANÁ,,17.0, 
74,74,Point,71,0,70,GST171,,Corporación Autónoma Regional de Caldas - CORPOCALDAS,GES121,Julio Cesar Salgado Galeano,Persona Jurídica,NIT,901342229,0,,CALDAS,SALAMINA,Carrera 7 numero 5-25 bajos,0.0,-75.487573,5.407689,WGS 84 (ESPG:4326),4724443.89242779,2156104.30490215,Coordenadas identificadas de acuerdo a la ubicación en google maps considerando las direcciones y la razón social proporcionadas.,3014150292.0,css.sisoma@gmail.com,NO,NO,NO,SI,,,,,,,,17653.0,0.0,CALDAS,SALAMINA,,17.0, 
75,75,Point,72,0,71,GST176,,Corporación Autónoma Regional de Caldas - CORPOCALDAS,GES174,JUAN PABLO OSPINA ROSAS,Persona Natural,Cédula de Ciudadanía,8908011313,0,,CALDAS,SALAMINA,PALACIO MUNICIPAL SALAMINA CL 5   5   65,0.0,-75.489488,5.407496,WGS 84 (ESPG:4326),4724231.50768796,2156083.7660004,Coordenadas identificadas de acuerdo a la ubicación en google maps considerando las direcciones y la razón social proporcionadas.,0.0,PLANEACION@SALAMINA-CALDAS.GOV.CO,NO,NO,NO,SI,,,,,,,,17653.0,0.0,CALDAS,SALAMINA,,17.0, 
76,76,Point,73,0,72,GST178,,Corporación Autónoma Regional de Caldas - CORPOCALDAS,GES180,FABIAN GIRALDO MEJIA,Persona Natural,Cédula de Ciudadanía,15957451,0,,CALDAS,SALAMINA,CRA 7 N 8 32,0.0,-75.487159,5.406058,WGS 84 (ESPG:4326),4724488.95767148,2155923.7309526,Coordenadas identificadas de acuerdo a la ubicación en google maps considerando las direcciones y la razón social proporcionadas.,3023835008.0,FAGIME2009@HOTMAIL.COM,NO,NO,NO,SI,,,,,,,,17653.0,0.0,CALDAS,SALAMINA,,17.0, 
77,77,Point,74,0,73,GST181,,Corporación Autónoma Regional de Caldas - CORPOCALDAS,GES41,Carlos Enrique Botero Alvarez,Persona Natural,Cédula de Ciudadanía,890802505,0,,CALDAS,MANZANARES,Cra. 4 Calle 6 esquina,0.0,-75.150489,5.255056,WGS 84 (ESPG:4326),4761743.54084479,2139084.69354939,Coordenadas identificadas de acuerdo a la ubicación en google maps considerando las direcciones y la razón social proporcionadas.,0.0,planeacion@manzanares-caldas.gov.co,NO,SI,NO,NO,,,,,,,,17433.0,0.0,CALDAS,MANZANARES,,17.0, 
78,78,Point,75,0,74,GST183,,Corporación Autónoma Regional de Caldas - CORPOCALDAS,GES68,Luisa María Salas,Persona Jurídica,NIT,901184487,0,,CALDAS,SALAMINA,Cr 8 # 8-68,0.0,-75.486173,5.405063,WGS 84 (ESPG:4326),4724597.77864011,2155813.20930387,Coordenadas identificadas de acuerdo a la ubicación en google maps considerando las direcciones y la razón social proporcionadas.,3112602671.0,Lsalas@cimelec.co,NO,NO,NO,SI,,,,,,,,17653.0,0.0,CALDAS,SALAMINA,,17.0, 
79,79,Point,76,1,75,GST185,,Corporación Autónoma Regional de Caldas - CORPOCALDAS,GES85,JORGE MARIO AMARILES GOMEZ,Persona Jurídica,NIT,900525419,0,,CALDAS,MANIZALES,"Escombrera la Nubia, Finca La granja, sector la enea",0.0,-75.45764,5.029271,WGS 84 (ESPG:4326),4727598.25926798,2114239.38941137,Coordenadas identificadas de acuerdo a la ubicación en google maps considerando las direcciones y la razón social proporcionadas.,3154003356.0,induvalae@gmail.com,NO,NO,NO,SI,,,,,,,,17001.0,17001036.0,CALDAS,MANIZALES,LA ENEA PARTE,17.0, 
80,80,Point,77,0,76,GST187,,Corporación Autónoma Regional de Caldas - CORPOCALDAS,GES159,DIEGO ALEJANDRO MARTINEZ SUAZA,Persona Natural,Cédula de Ciudadanía,4547700,0,,CALDAS,MANIZALES,CL 77 #21-43 MANIZALES CALDAS,0.0,-75.479023,5.046876,WGS 84 (ESPG:4326),4725234.17485771,2116195.39211323,"Se modifica municipio, dado que su dirección indica Manizales. Coordenadas identificadas de acuerdo a la ubicación en google maps considerando las direcciones y la razón social proporcionadas.",3104328557.0,N.A.,NO,NO,NO,SI,,,,,,,,17001.0,0.0,CALDAS,MANIZALES,,17.0, 
81,81,Point,78,0,77,GST189,,Corporación Autónoma Regional de Caldas - CORPOCALDAS,GES99,EDGAR ALONSO CASTRO LIZARRALDE,Persona Jurídica,NIT,901184609,0,,CALDAS,MANIZALES,CALLE 68 #28-29 BARRIO PALERMO,0.0,-75.490244,5.052553,WGS 84 (ESPG:4326),4723992.06834913,2116827.94368515,Coordenadas identificadas de acuerdo a la ubicación en google maps considerando las direcciones y la razón social proporcionadas.,3106826866.0,contabilidad@geners.com.co,NO,NO,NO,SI,,,,,,,,17001.0,0.0,CALDAS,MANIZALES,,17.0, 
82,82,Point,79,0,78,GST190,,Corporación Autónoma Regional de Caldas - CORPOCALDAS,GES140,JOSÉ OMAR RODRIGUEZ VALENCIA,Persona Natural,Cédula de Ciudadanía,810004051,0,,CALDAS,MANIZALES,ZONA INDUSTRIAL MALTERIA LA MIRANDA,0.0,-75.427953,5.038502,WGS 84 (ESPG:4326),4730894.4886754,2115247.96317313,Coordenadas identificadas de acuerdo a la ubicación en google maps considerando las direcciones y la razón social proporcionadas.,8877111.0,castroflorezgerencia@gmail.com,NO,NO,SI,NO,,,,,,,,17001.0,0.0,CALDAS,MANIZALES,,17.0, 
83,83,Point,80,0,79,GST192,,Corporación Autónoma Regional de Caldas - CORPOCALDAS,GES144,JAVIER NARANJO MEJIA - FELIPE TORO MEJUA,Persona Jurídica,NIT,900827487,0,,CALDAS,MANIZALES,CALLE 85#25-120 O ANTIGUO VIVERO FRENTE A EXPOFERIAS,0.0,-75.472602,5.044388,WGS 84 (ESPG:4326),4725945.19133158,2115917.46179423,Coordenadas identificadas de acuerdo a la ubicación en google maps considerando las direcciones y la razón social proporcionadas.,3183545567.0,gproyectoscaldas@gmail.com,NO,NO,NO,SI,,,,,,,,17001.0,0.0,CALDAS,MANIZALES,,17.0, 
84,84,Point,81,1,80,GST197,,Corporación Autónoma Regional del Atlántico - CRA ATLÁNTICO,,MARASEO S.A. E.SP.,Persona Jurídica,NIT,802009517,0,,ATLÁNTICO,PUERTO COLOMBIA,Kilómetro 07 Vía a Puerto Colombia,0.0,-74.89164,10.110122,WGS 84 (ESPG:4326),4792802.30438722,2675790.84339539,"Se convirtieron coordenadas de grados, minutos y segundos a decimales",0.0,maraseoadministracion@maraseo.com,NO,SI,SI,SI,,,,,,,,47541.0,47541002.0,MAGDALENA,PEDRAZA, BAHIA HONDA,47.0, 
85,85,Point,82,1,81,GST198,,Corporación Autónoma Regional del Atlántico - CRA ATLÁNTICO,,CANTERA EL TRIUNFO,Persona Jurídica,NIT,890100251,0,,ATLÁNTICO,PUERTO COLOMBIA,PR 32 Avenida Circunvalar de la Prosperidad,0.0,-74.871167,11.025278,WGS 84 (ESPG:4326),4795651.89448831,2776974.54350287,,0.0,mvasquez@argos.com,NO,NO,NO,SI,,,,,,,,8573.0,8573001.0,ATLÁNTICO,PUERTO COLOMBIA,LA PLAYA,8.0, 
86,86,Point,83,1,82,GST199,,Corporación Autónoma Regional del Atlántico - CRA ATLÁNTICO,,INGECOST S.A.,Persona Jurídica,NIT,802017913,0,,ATLÁNTICO,LURUACO,Kilómetro 56 Vía Cordialidad,0.0,-75.110431,10.616169,WGS 84 (ESPG:4326),4769198.71708084,2731902.92405412,"Se convirtieron coordenadas de grados, minutos y segundos a decimales",0.0,info@ingecost.com,NO,SI,SI,NO,,,,,,,,8421.0,8421011.0,ATLÁNTICO,LURUACO,SIN INFORMACION,8.0, 
87,87,Point,84,1,83,GST200,,Corporación Autónoma Regional del Atlántico - CRA ATLÁNTICO,,INVERHAV S.A.S.,Persona Jurídica,NIT,900303104,0,,ATLÁNTICO,PUERTO COLOMBIA,Kilómetro 6 Vía Puerto Colombia,0.0,-74.886616,10.996882,WGS 84 (ESPG:4326),4793944.36685658,2773845.06312575,,0.0,notificacionesinverhavsas@gmail.com,NO,SI,SI,NO,,,,,,,,8573.0,8573001.0,ATLÁNTICO,PUERTO COLOMBIA,LA PLAYA,8.0, 
88,88,Point,85,1,84,GST201,,Corporación Autónoma Regional del Atlántico - CRA ATLÁNTICO,,TRIPLE A S.A. E.S.P.,Persona Jurídica,NIT,800135913,0,,ATLÁNTICO,TUBARÁ,Kilómetro 15 Via Barranquilla - Tubará,0.0,-74.92447,10.93533,WGS 84 (ESPG:4326),4789765.01917463,2767064.63115594,,0.0,sandra.parra@aaa.com.co,NO,NO,NO,SI,,,,,,,,8832.0,8832002.0,ATLÁNTICO,TUBARÁ,SAN LUIS,8.0, 
89,89,Point,86,0,85,GST202,,Corporación Autónoma Regional del Atlántico - CRA ATLÁNTICO,,INTERASEO S.A. E.S.P.,Persona Jurídica,NIT,819000939,0,,ATLÁNTICO,SOLEDAD,Calle 15 No.26A-50,0.0,-74.756283,10.925253,WGS 84 (ESPG:4326),4808137.40116533,2765838.32233314,"Se convirtieron coordenadas de grados, minutos y segundos a decimales",0.0,pqratlantico@interaseo.com.co,NO,NO,NO,SI,,,,,,,,8758.0,0.0,ATLÁNTICO,SOLEDAD,,8.0, 
90,90,Point,87,0,86,GST203,,Corporación Autónoma Regional del Atlántico - CRA ATLÁNTICO,,PALMIRA RODRIGUEZ,Persona Jurídica,NIT,901075452,0,,ATLÁNTICO,BARRANQUILLA,Vía a Henequen con Circunvalar,0.0,-74.842255,11.009003,WGS 84 (ESPG:4326),4798799.26802206,2775155.30288214,,0.0,fvelasquez@transportes palmira.com,NO,SI,SI,NO,,,,,,,,8001.0,0.0,ATLÁNTICO,BARRANQUILLA,,8.0, 
91,91,Point,88,1,87,GST204,,Corporación Autónoma Regional del Atlántico - CRA ATLÁNTICO,,MARIA ALEJANDRA RUEDA LUGO (cantera los manguitos),Persona Natural,Cédula de Ciudadanía,1044420725,0,,ATLÁNTICO,BARANOA,Transv 44 N° 102 - 167 ap 420,0.0,-74.882297,10.829375,WGS 84 (ESPG:4326),4794300.97219826,2755318.95018395,"Se convirtieron coordenadas de grados, minutos y segundos a decimales",0.0,sicaeli@hotmail.com,NO,NO,NO,SI,,,,,,,,8078.0,8078004.0,ATLÁNTICO,BARANOA,PITAL,8.0, 
92,92,Point,89,1,88,GST205,,Corporación Autónoma Regional de los Valles del Sinú y del San Jorge - CVS,,SIEMPRE LIMPIO DEL CARIBE S.A.S. E.S.P.,Persona Jurídica,NIT,901142664,0,,CÓRDOBA,MONTERÍA,"PARQUE INDUSTRIAL DE APROVECHAMIENTO DE RESIDUOS
SÓLIDOS URBANOS Y RESIDUOS ESPECIALES NO PELIGROSOS –PIARS “LOS
CERROS”», Predio La Montañita, corregimiento Patio Bonito, municipio de Montería, departamento de Córdoba",0.0,-75.724881,8.576832,WGS 84 (ESPG:4326),4700168.73526796,2506802.45170684,"Se convirtieron coordenadas de grados, minutos y segundos a decimales",0.0,siemprelimpiodelcaribesasesp@gmail.com,NO,SI,NO,SI,NO,NO,NO,NO,NO,NO,NO,23001.0,23001061.0,CÓRDOBA,MONTERÍA,KM 24,23.0, 
93,93,Point,90,1,89,GST206,,Corporación Autónoma Regional de los Valles del Sinú y del San Jorge - CVS,,HAGO SERVICIOS Y SOLUCIONES S.A.S.,Persona Jurídica,NIT,901287390,0,,CÓRDOBA,SAN ANTERO,"Predio Mandalay, corregimiento El Porvenir, municipio de San Antero, departamento de Córdoba",0.0,-75.715125,9.401997,WGS 84 (ESPG:4326),4701919.49799093,2598084.4186567,"Se convirtieron coordenadas de grados, minutos y segundos a decimales",0.0,hernan_mandalay@hotmail.com,NO,NO,SI,SI,NO,NO,NO,NO,NO,NO,NO,23672.0,23672005.0,CÓRDOBA,SAN ANTERO,PORVENIR,23.0, 
94,94,Point,91,1,90,GST207,,Corporación Autónoma Regional de los Valles del Sinú y del San Jorge - CVS,,CANTERA SAN JOSÉ DE LORICA S.A.S,Persona Jurídica,NIT,901449753,0,,CÓRDOBA,LORICA,"Corregimiento de San Sebastián, Vía a momol entrada a San Sebastian, Lorica, Córdoba",0.0,-75.792028,9.228167,WGS 84 (ESPG:4326),4693318.60450991,2578918.15946622,"Se convirtieron coordenadas de grados, minutos y segundos a decimales",0.0,canterasanjose@gmail.com,NO,SI,SI,SI,NO,NO,NO,NO,NO,NO,NO,23417.0,23417011.0,CÓRDOBA,LORICA,PUEBLO CHIQUITO,23.0, 
95,95,Point,92,0,91,GST208,,Departamento Administrativo de Gestión Del Medio Ambiente - DAGMA,,ROCALES Y CONCRETOS S.A.S,Persona Jurídica,NIT,8002051667,0,,VALLE DEL CAUCA,CALI,"Avenida 9na Oeste # 23 Bis 28 - piedemonte de la cordillera occidental, en el corregimiento de La Castilla, sector del bajo Aguacatal, zona rural del Municipio de Santiago de Cali, Comuna 1",0.0,-76.5664,3.45622,WGS 84 (ESPG:4326),4603768.68035175,1940661.63073976,Se verifican coordenadas a partir de la dirección,6026680042.0,servicioalcliente@rocalesyconcreto.com,NO,NO,SI,NO,,,,,,,,76001.0,0.0,VALLE DEL CAUCA,CALI,,76.0, 
96,96,Point,93,0,92,GST209,,Establecimiento Público Ambiental Barranquilla Verde - EPA BARRANQUILLA VERDE,,CONSTRUCTORA FG SA,Persona Jurídica,NIT,800209530,0,,ATLÁNTICO,BARRANQUILLA,Carrera 57 N 84 – 211,0.0,-74.814969,11.009835,WGS 84 (ESPG:4326),4801780.81850978,2775229.10732336,Se identifican coordenadas a partir de la dirección,0.0,constructorafgbq@une.net.co,,,,,,,,,,,,8001.0,0.0,ATLÁNTICO,BARRANQUILLA,,8.0, 
97,97,Point,94,0,93,GST210,,Establecimiento Público Ambiental Barranquilla Verde - EPA BARRANQUILLA VERDE,,BF CONSTRUYE SAS,Persona Jurídica,NIT,890111844,0,,ATLÁNTICO,BARRANQUILLA,Calle 109 # 50 - 67 Of 2D,0.0,-74.836076,10.97416,WGS 84 (ESPG:4326),4799450.82471689,2771298.19811399,Se identifican coordenadas a partir de la dirección,0.0,asistadmon@bfconstruye.co,,,,,,,,,,,,8001.0,0.0,ATLÁNTICO,BARRANQUILLA,,8.0, 
98,98,Point,95,0,94,GST211,,Establecimiento Público Ambiental Barranquilla Verde - EPA BARRANQUILLA VERDE,,ASODISVALLE SAS,Persona Jurídica,NIT,901292680,0,,ATLÁNTICO,BARRANQUILLA,Carrera 5 # 35 – 26,0.0,-74.790207,10.940143,WGS 84 (ESPG:4326),4804440.12557242,2767506.61052778,Se identifican coordenadas a partir de la dirección,3176473533.0,jeisonfelipearistizabal@gmail.com,,,,,,,,,,,,8001.0,0.0,ATLÁNTICO,BARRANQUILLA,,8.0, 
99,99,Point,96,0,95,GST212,,Establecimiento Público Ambiental Barranquilla Verde - EPA BARRANQUILLA VERDE,,SOLING DE LA CONSTRUCCION SAS,Persona Jurídica,NIT,900976350,0,,ATLÁNTICO,BARRANQUILLA,Carrera 117 N 42 B – 119,0.0,-74.806981,11.004107,WGS 84 (ESPG:4326),4802649.60648361,2774590.49395219,Se identifican coordenadas a partir de la dirección,3013309557.0,,,,,,,,,,,,,8001.0,0.0,ATLÁNTICO,BARRANQUILLA,,8.0, 
100,100,Point,97,0,96,GST213,,Establecimiento Público Ambiental Barranquilla Verde - EPA BARRANQUILLA VERDE,,E&A INGENIERIA Y TRANSPORTE S.A.S.,Persona Jurídica,NIT,901543714,0,,ATLÁNTICO,BARRANQUILLA,Calle 90 No 4-54,0.0,-74.823949,10.941003,WGS 84 (ESPG:4326),4800753.63645464,2767623.70734698,Se identifican coordenadas a partir de la dirección,3016718314.0,eyaingenieriaytransporte@gmail.com,,,,,,,,,,,,8001.0,0.0,ATLÁNTICO,BARRANQUILLA,,8.0, 
101,101,Point,98,0,97,GST214,,Establecimiento Público Ambiental Barranquilla Verde - EPA BARRANQUILLA VERDE,,CRRB EXCAVACIONES SAS,Persona Jurídica,NIT,900936019,0,,ATLÁNTICO,BARRANQUILLA,Calle 7D N 81B – 03 Torre 6 Apto 504,0.0,-74.806981,11.004107,WGS 84 (ESPG:4326),4802649.60648361,2774590.49395219,Se identifican coordenadas a partir de la dirección,3102870654.0,,,,,,,,,,,,,8001.0,0.0,ATLÁNTICO,BARRANQUILLA,,8.0, 
102,102,Point,99,0,98,GST215,,Establecimiento Público Ambiental Barranquilla Verde - EPA BARRANQUILLA VERDE,,AMGO CONSTRUCCIONES SAS,Persona Jurídica,NIT,900353914,0,,ATLÁNTICO,BARRANQUILLA,Calle 90 N 44 – 38,0.0,-74.82468,11.002534,WGS 84 (ESPG:4326),4800714.9904559,2774428.17725013,Se identifican coordenadas a partir de la dirección,3128780981.0,info@amgoconstrucciones.sas,,,,,,,,,,,,8001.0,0.0,ATLÁNTICO,BARRANQUILLA,,8.0, 
103,103,Point,100,0,99,GST217,,Establecimiento Público Ambiental Barranquilla Verde - EPA BARRANQUILLA VERDE,,P Y J PAISAJISMO SAS,Persona Jurídica,NIT,901297273,0,,ATLÁNTICO,BARRANQUILLA,Carrera 38 N 84 - 11,0.0,-74.830515,10.98519,WGS 84 (ESPG:4326),4800065.76730979,2772514.27969045,Se identifican coordenadas a partir de la dirección,3044353196.0,,,,,,,,,,,,,8001.0,0.0,ATLÁNTICO,BARRANQUILLA,,8.0, 
104,104,Point,101,0,100,GST218,,Establecimiento Público Ambiental Barranquilla Verde - EPA BARRANQUILLA VERDE,,MAPUL CONTRUCCIONES Y TRANSPORTES SAS,Persona Jurídica,NIT,901305642,0,,ATLÁNTICO,BARRANQUILLA,Calle 59 N 44 - 61 Apto 205,0.0,-74.795826,10.987918,WGS 84 (ESPG:4326),4803857.66075518,2772793.0149145,Se identifican coordenadas a partir de la dirección,3168249567.0,,,,,,,,,,,,,8001.0,0.0,ATLÁNTICO,BARRANQUILLA,,8.0, 
105,105,Point,102,0,101,GST219,,Establecimiento Público Ambiental Barranquilla Verde - EPA BARRANQUILLA VERDE,,AYE CONSTRUCCIONES DEL CARIBE SAS,Persona Jurídica,NIT,901185905,0,,ATLÁNTICO,BARRANQUILLA,Calle 27 N.º 48 – 144,0.0,-74.782281,10.95641,WGS 84 (ESPG:4326),4805316.82096351,2769300.14406433,Se identifican coordenadas a partir de la dirección,3197173408.0,,,,,,,,,,,,,8001.0,0.0,ATLÁNTICO,BARRANQUILLA,,8.0, 
106,106,Point,103,0,102,GST220,,Establecimiento Público Ambiental Barranquilla Verde - EPA BARRANQUILLA VERDE,,LOGISTICA Y TRANSPORTES JL GRUPO SAS,Persona Jurídica,NIT,900489332,0,,ATLÁNTICO,BARRANQUILLA,Calle 79 Nº 67 – 10 Oficina  9B,0.0,-74.804386,11.012825,WGS 84 (ESPG:4326),4802938.98376178,2775552.77967756,Se identifican coordenadas a partir de la dirección,52967391.0,,,,,,,,,,,,,8001.0,0.0,ATLÁNTICO,BARRANQUILLA,,8.0, 
107,107,Point,104,0,103,GST221,,Establecimiento Público Ambiental Barranquilla Verde - EPA BARRANQUILLA VERDE,,BUITRAGO MONTOYA SAS,Persona Jurídica,NIT,802006295,0,,ATLÁNTICO,BARRANQUILLA,Calle 77B N° 59 - 61 Oficina 1110,0.0,-74.802736,11.008004,WGS 84 (ESPG:4326),4803116.01300847,2775018.57990296,Se identifican coordenadas a partir de la dirección,0.0,buitragomontoya123@gmail.com,,,,,,,,,,,,8001.0,0.0,ATLÁNTICO,BARRANQUILLA,,8.0, 
108,108,Point,105,0,104,GST222,,Establecimiento Público Ambiental Barranquilla Verde - EPA BARRANQUILLA VERDE,,JM TRANSPORTES Y AGREGADOS SAS,Persona Jurídica,NIT,900742804,0,,ATLÁNTICO,BARRANQUILLA,Calle 113 N 37 - - 43,0.0,-74.837773,10.981704,WGS 84 (ESPG:4326),4799270.40586612,2772133.54009191,Se identifican coordenadas a partir de la dirección,3017545226.0,,,,,,,,,,,,,8001.0,0.0,ATLÁNTICO,BARRANQUILLA,,8.0, 
109,109,Point,106,0,105,GST223,,Establecimiento Público Ambiental Barranquilla Verde - EPA BARRANQUILLA VERDE,,POLO LOGYS SAS,Persona Jurídica,NIT,1045682579,0,,ATLÁNTICO,BARRANQUILLA,Carrera 12A  Nº 2 – 07,0.0,-74.811427,10.960524,WGS 84 (ESPG:4326),4802134.82514659,2769774.06012603,Se identifican coordenadas a partir de la dirección,3107409020.0,polologys@hotmail.com,,,,,,,,,,,,8001.0,0.0,ATLÁNTICO,BARRANQUILLA,,8.0, 
110,110,Point,107,0,106,GST224,,Establecimiento Público Ambiental Barranquilla Verde - EPA BARRANQUILLA VERDE,,SOLUCIONES DE INFRAESTRUCTURA Y LOGISTICA SAS,Persona Jurídica,NIT,900475398,0,,ATLÁNTICO,BARRANQUILLA,Calle 85 N 50 - 159 Oficina 1403,0.0,-74.81935,11.006477,WGS 84 (ESPG:4326),4801299.8861717,2774860.6856732,Se identifican coordenadas a partir de la dirección,3455064.0,facturacion@silsa.com.co,,,,,,,,,,,,8001.0,0.0,ATLÁNTICO,BARRANQUILLA,,8.0, 
111,111,Point,108,0,107,GST225,,Establecimiento Público Ambiental Barranquilla Verde - EPA BARRANQUILLA VERDE,,CONSTRUCCIONES MARVAL SAS,Persona Jurídica,NIT,890211777,0,,ATLÁNTICO,BARRANQUILLA,Carrera 57 N 99a – 65 torre Atlántico Sur  Sur 17,0.0,-74.82809,11.016406,WGS 84 (ESPG:4326),4800351.80591518,2775964.49334268,Se identifican coordenadas a partir de la dirección,3853162.0,,,,,,,,,,,,,8001.0,0.0,ATLÁNTICO,BARRANQUILLA,,8.0, 
112,112,Point,109,0,108,GST226,,Establecimiento Público Ambiental Barranquilla Verde - EPA BARRANQUILLA VERDE,,SIGAR CONSTRUCCIONES Y CIA SAS,Persona Jurídica,NIT,900341165,0,,ATLÁNTICO,BARRANQUILLA,Kilometro 1 Via La Cordialidad,0.0,-74.810017,10.952443,WGS 84 (ESPG:4326),4802283.5775863,2768879.63490658,Se identifican coordenadas a partir de la dirección,3004521353.0,,,,,,,,,,,,,8001.0,0.0,ATLÁNTICO,BARRANQUILLA,,8.0, 
113,113,Point,110,0,109,GST227,,Establecimiento Público Ambiental Barranquilla Verde - EPA BARRANQUILLA VERDE,,EQUITRANSPORTES SAS,Persona Jurídica,NIT,901140485,0,,ATLÁNTICO,BARRANQUILLA,Carrera 57 N 84 – 211,0.0,-74.814969,11.009835,WGS 84 (ESPG:4326),4801780.81850978,2775229.10732336,Se identifican coordenadas a partir de la dirección,0.0,equitransportesfact@gmail.com,,,,,,,,,,,,8001.0,0.0,ATLÁNTICO,BARRANQUILLA,,8.0, 
114,114,Point,111,0,110,GST229,,Establecimiento Público Ambiental -EPA BUENAVENTURA,,SERVICIOS ESPECIALES DEL PACIFICO LTDA (EUFEMIA),,,0,0,,VALLE DEL CAUCA,BUENAVENTURA,K 6 via Cabal Pombo ubicado en el costado izquierdo sentido Btura - Cali en el Distrito Especial de Buenaventura,0.0,-76.982806,3.873851,WGS 84 (ESPG:4326),4557640.64750265,1987101.69934829,"De acuerdo a la dirección, se identifican coordenadas.",0.0,,NO,NO,NO,SI,,,,,,,,76109.0,0.0,VALLE DEL CAUCA,BUENAVENTURA,,76.0, 
115,115,Point,112,0,111,GST511,,Corporación Autónoma Regional del Centro de Antioquia  -  CORANTIOQUIA,AS28- 2022-4,KONTROLGRÜN S.A.S,,,0,0,,ANTIOQUIA,ENVIGADO,Cra 45 No. 34 sur 57,0.0,-75.588948,6.174237,WGS 84 (ESPG:4326),4713593.63335357,2240937.93348231,Su dirección arroja en el caso urbano. Se identifican coordenadas a partir de la dirección y/o razón social.,2701396.0,,NO,NO,SI,NO,,,,,,,,5266.0,0.0,ANTIOQUIA,ENVIGADO,,5.0, 
116,116,Point,113,0,112,GST512,,Corporación Autónoma Regional del Centro de Antioquia  -  CORANTIOQUIA,ZF28- 2022-5,LUZ HELENA GRANADA OCAMPO,,,0,0,,ANTIOQUIA,VEGACHÍ,Cra 49 No. 49 A -31,0.0,-74.798992,6.770514,WGS 84 (ESPG:4326),4801251.59131025,2306498.12084684,Se identifican coordenadas a partir de la dirección y/o razón social.,3117039073.0,,NO,NO,NO,SI,,,,,,,,5858.0,0.0,ANTIOQUIA,VEGACHÍ,,5.0, 
117,117,Point,114,1,113,GST514,,Corporación Autónoma Regional del Centro de Antioquia  -  CORANTIOQUIA,AN28- 2022-8,PROCOPAL S.A.,,,0,0,,ANTIOQUIA,GIRARDOTA,"Autopista Norte Kilómetro 25, Entrada a Girardota",0.0,-75.454405,6.381705,WGS 84 (ESPG:4326),4728594.4521542,2263813.07721183,Se identifican coordenadas a partir de la dirección y/o razón social.,3216484853.0,,NO,NO,NO,SI,,,,,,,,5308.0,5308018.0,ANTIOQUIA,GIRARDOTA,LOMA DE LOS OCHOA,5.0, 
118,118,Point,115,1,114,GST515,,Corporación Autónoma Regional del Centro de Antioquia  -  CORANTIOQUIA,AN28- 2022-9,BUILD SMART ECOMATERIALS SAS,,,0,0,,ANTIOQUIA,GIRARDOTA,"Lote la Palma #3 Vereda San Andrés, La mina de la Palma",5308023.0,-75.422474,6.412042,WGS 84 (ESPG:4326),4732143.1550214,2267151.51926832,Se identifican coordenadas a partir de la dirección y/o razón social.,0.0,,NO,NO,SI,NO,,,,,,,,5079.0,5079020.0,ANTIOQUIA,BARBOSA,FILO VERDE,5.0, 
119,119,Point,116,1,115,GST517,,Corporación Autónoma Regional del Centro de Antioquia  -  CORANTIOQUIA,AN28- 2022-11,PAVIMENTAR S.A,,,0,0,,ANTIOQUIA,GIRARDOTA,Vereda Ancón Norte,0.0,-75.461004,6.380921,WGS 84 (ESPG:4326),4727863.89464663,2263729.83243225,Se identifican coordenadas a partir de la dirección y/o razón social.,0.0,,NO,NO,NO,SI,,,,,,,,5308.0,5308025.0,ANTIOQUIA,GIRARDOTA,SAN ESTEBAN,5.0, 
120,120,Point,117,1,116,GST518,,Corporación Autónoma Regional del Centro de Antioquia  -  CORANTIOQUIA,ZF28- 2022-12,SARA ESCOBAR RIVERA,,,0,0,,ANTIOQUIA,PUERTO BERRÍO,"Hacienda Grecia, Lote 2 – La Malena",0.0,-74.423017,6.462949,WGS 84 (ESPG:4326),4842700.5463486,2272363.91808686,De acuerdo a la ubicación de la hacienda grecia en puerto berrio - google maps,3206975922.0,,NO,NO,NO,SI,,,,,,,,5579.0,5579014.0,ANTIOQUIA,PUERTO BERRÍO,MALENA,5.0, 
121,121,Point,118,0,117,GST519,,Corporación Autónoma Regional del Centro de Antioquia  -  CORANTIOQUIA,ZF28- 2022-13,SOCIEDAD LITAPEPE S.A.S.,,,0,0,,ANTIOQUIA,REMEDIOS,Mina Napoleón Gold Mine,0.0,-75.573599,6.201746,WGS 84 (ESPG:4326),4715307.46276802,2243972.36678474,Se identifican coordenadas a partir de la dirección y/o razón social.,0.0,,NO,SI,SI,SI,,,,,,,,5001.0,0.0,ANTIOQUIA,MEDELLÍN,,5.0, 
122,122,Point,119,0,118,GST521,,Corporación Autónoma Regional del Centro de Antioquia  -  CORANTIOQUIA,AN28- 2022-15,"INVERSIONES SIEGERT S.A. En
liquidación",,,0,0,,ANTIOQUIA,MEDELLÍN,"Carrea 50 número 48 -
56",0.0,-75.568141,6.248613,WGS 84 (ESPG:4326),4715936.85571575,2249153.33487078,Se identifican coordenadas a partir de la dirección y/o razón social.,0.0,,NO,NO,NO,SI,SI,SI,SI,NO,NO,NO,NO,5001.0,0.0,ANTIOQUIA,MEDELLÍN,,5.0, 
123,123,Point,120,1,119,GST523,,Corporación Autónoma Regional del Centro de Antioquia  -  CORANTIOQUIA,,,,,0,0,,ANTIOQUIA,AMAGÁ,"Vereda Piedecuesta, predio Planta de
Arenas Industriales Zanzibar",5030016.0,-75.690507,6.04637,WGS 84 (ESPG:4326),4702279.73615564,2226849.24962117,Se identifican coordenadas a partir de la dirección y/o razón social.,0.0,,NO,SI,SI,NO,,,,,,,,5030.0,5030016.0,ANTIOQUIA,AMAGÁ,PIEDECUESTA,5.0, 
124,124,Point,121,1,120,GST531,,Corporación Autónoma Regional del Centro de Antioquia  -  CORANTIOQUIA,AN28- 2022-24,JORGE IVÁN CARDONA ECHEVERRI,,,0,0,,ANTIOQUIA,BARBOSA,Hacienda El Progreso Vereda Platanillo,5079047.0,-75.400591,6.410477,WGS 84 (ESPG:4326),4734563.48173408,2266967.06357944,Se identifican coordenadas a partir de la dirección y/o razón social.,3167584168.0,,NO,NO,NO,SI,,,,,,,,5079.0,5079013.0,ANTIOQUIA,BARBOSA,EL HATILLO,5.0, 
125,125,Point,122,1,121,GST532,,Corporación Autónoma Regional del Centro de Antioquia  -  CORANTIOQUIA,AN28- 2022-26,ARENERA BUILES Y CIA LTDA,,,0,0,,ANTIOQUIA,BELLO,Calle 59D Número 65E 80 interior 115. Vereda Primavera,0.0,-75.57473,6.349073,WGS 84 (ESPG:4326),4715262.39307556,2260268.67056431,Se identifican coordenadas a partir de la dirección y/o razón social.,0.0,,NO,NO,NO,SI,,,,,,,,5088.0,5088013.0,ANTIOQUIA,BELLO,LA PRIMAVERA,5.0, 
126,126,Point,123,1,122,GST535,,Corporación Autónoma Regional del Centro de Antioquia  -  CORANTIOQUIA,AN28- 2022-29,FOCOLSA S.A.S,,,0,0,,ANTIOQUIA,BARBOSA,Aserrío Km 2 de la vía Hatillo – Barbosa,0.0,-75.379309,6.412513,WGS 84 (ESPG:4326),4736918.94239976,2267181.20730948,Se identifican coordenadas a partir de la dirección y/o razón social.,0.0,,NO,NO,SI,NO,NO,NO,NO,SI,NO,NO,NO,5079.0,5079011.0,ANTIOQUIA,BARBOSA,EL CORTADO,5.0, 
127,127,Point,124,1,123,GST548,,Corporación Autónoma Regional del Centro de Antioquia  -  CORANTIOQUIA,ZF28- 2022-42,CEMEX COLOMBIA S.A.,,,0,0,,ANTIOQUIA,MACEO,"ZODME Km. 18+800
Vía Maceo La Susana",0.0,-74.640365,6.612346,WGS 84 (ESPG:4326),4818722.90473252,2288951.33058884,Se identifican coordenadas a partir de la dirección y/o razón social.,0.0,,NO,NO,NO,SI,,,,,,,,5425.0,5425011.0,ANTIOQUIA,MACEO,LA SUSANA,5.0, 
128,128,Point,125,1,124,GST552,,Corporación Autónoma Regional del Centro de Antioquia  -  CORANTIOQUIA,AN28- 2022-46,LADRILLERA EL DIAMANTE,,,0,0,,ANTIOQUIA,MEDELLÍN,"Corregimiento
Altavista, Ladrillera El Diamante",0.0,-75.61995,6.237639,WGS 84 (ESPG:4326),4710196.28472687,2247967.70039596,Se identifican coordenadas a partir de la dirección y/o razón social.,0.0,,NO,SI,SI,NO,,,,,,,,5001.0,5001046.0,ANTIOQUIA,MEDELLÍN,SAN PABLO,5.0, 
129,129,Point,126,0,125,GST572,,Corporación Autónoma Regional del Centro de Antioquia  -  CORANTIOQUIA,AN28- 2022-67,ALFARERA SANTA RITA S.A.,,,0,0,,ANTIOQUIA,MEDELLÍN,"Corregimiento Altavista, predio Alfarera Santa Rita
S.A.",0.0,-75.611933,6.22725,WGS 84 (ESPG:4326),4711078.07099954,2246814.16821156,Se identifican coordenadas a partir de la dirección y/o razón social.,0.0,,NO,SI,SI,NO,,,,,,,,5001.0,0.0,ANTIOQUIA,MEDELLÍN,,5.0, 
130,130,Point,127,1,126,GST579,,Corporación Autónoma Regional del Centro de Antioquia  -  CORANTIOQUIA,AN28- 2022-74,RECICLADOS INDUSTRIALES DE COLOMBIA S.A.S.,,,0,0,,ANTIOQUIA,GIRARDOTA,"Vereda Portachuelo, predio Reciclados Industriales de Colombia S.A.S.",0.0,-75.4726,6.378596,WGS 84 (ESPG:4326),4726579.58254465,2263478.84188724,Se identifican coordenadas a partir de la dirección y/o razón social.,0.0,,NO,NO,SI,NO,,,,,,,,5308.0,5308021.0,ANTIOQUIA,GIRARDOTA,PORTACHUELO,5.0, 
131,131,Point,128,0,127,GST584,,Corporación Autónoma Regional del Centro de Antioquia  -  CORANTIOQUIA,AS28- 2022-79,MG EXCEDENTES INDUSTRIALES S.A.S.,,,0,0,,ANTIOQUIA,LA ESTRELLA,"Vereda La Tablaza, predio MG Excedentes Industriales",5380007.0,-75.634871,6.136605,WGS 84 (ESPG:4326),4708489.3093473,2236800.24488917,Se identifican coordenadas a partir de la dirección y/o razón social.,0.0,,NO,SI,SI,SI,,,,,,,,5380.0,0.0,ANTIOQUIA,LA ESTRELLA,,5.0, 
132,132,Point,129,0,128,GST586,,Secretaría Distrital de Ambiente  -  SDA,,CEMEX LA FISCALA,,,0,0,,"BOGOTÁ, D.C.","BOGOTÁ, D.C.",,0.0,-74.120375,4.539566,WGS 84 (ESPG:4326),4875760.64160864,2059713.87209295,Se identifican coordenadas a partir de la dirección y/o razón social.,0.0,,NO,NO,NO,SI,,,,,,,,11001.0,0.0,"BOGOTÁ, D.C.","BOGOTÁ, D.C.",,11.0, 
133,133,Point,130,0,129,GST592,,Secretaría Distrital de Ambiente  -  SDA,,ECOPLANET SOLUCIONES AR SAS,,,0,0,,"BOGOTÁ, D.C.","BOGOTÁ, D.C.",,0.0,-74.085719,4.684628,WGS 84 (ESPG:4326),4879628.60942972,2075739.20051718,Se identifican coordenadas a partir de la dirección y/o razón social.,0.0,,NO,NO,SI,NO,,,,,,,,11001.0,0.0,"BOGOTÁ, D.C.","BOGOTÁ, D.C.",,11.0, 
134,134,Point,131,1,130,GST593,,Secretaría Distrital de Ambiente  -  SDA,,Granulados y reciclados de Colombia - GRECO S.A.S.,,,0,0,,"BOGOTÁ, D.C.","BOGOTÁ, D.C.",,0.0,-74.13821,4.736091,WGS 84 (ESPG:4326),4873817.52667711,2081435.84495484,Se identifican coordenadas a partir de la dirección y/o razón social.,0.0,,NO,NO,SI,NO,,,,,,,,25214.0,25214008.0,CUNDINAMARCA,COTA,SIBERIA,25.0, 
